%time,field.header.seq,field.header.stamp,field.header.frame_id,field.child_frame_id,field.pose.pose.position.x,field.pose.pose.position.y,field.pose.pose.position.z,field.pose.pose.orientation.x,field.pose.pose.orientation.y,field.pose.pose.orientation.z,field.pose.pose.orientation.w,field.pose.covariance0,field.pose.covariance1,field.pose.covariance2,field.pose.covariance3,field.pose.covariance4,field.pose.covariance5,field.pose.covariance6,field.pose.covariance7,field.pose.covariance8,field.pose.covariance9,field.pose.covariance10,field.pose.covariance11,field.pose.covariance12,field.pose.covariance13,field.pose.covariance14,field.pose.covariance15,field.pose.covariance16,field.pose.covariance17,field.pose.covariance18,field.pose.covariance19,field.pose.covariance20,field.pose.covariance21,field.pose.covariance22,field.pose.covariance23,field.pose.covariance24,field.pose.covariance25,field.pose.covariance26,field.pose.covariance27,field.pose.covariance28,field.pose.covariance29,field.pose.covariance30,field.pose.covariance31,field.pose.covariance32,field.pose.covariance33,field.pose.covariance34,field.pose.covariance35,field.twist.twist.linear.x,field.twist.twist.linear.y,field.twist.twist.linear.z,field.twist.twist.angular.x,field.twist.twist.angular.y,field.twist.twist.angular.z,field.twist.covariance0,field.twist.covariance1,field.twist.covariance2,field.twist.covariance3,field.twist.covariance4,field.twist.covariance5,field.twist.covariance6,field.twist.covariance7,field.twist.covariance8,field.twist.covariance9,field.twist.covariance10,field.twist.covariance11,field.twist.covariance12,field.twist.covariance13,field.twist.covariance14,field.twist.covariance15,field.twist.covariance16,field.twist.covariance17,field.twist.covariance18,field.twist.covariance19,field.twist.covariance20,field.twist.covariance21,field.twist.covariance22,field.twist.covariance23,field.twist.covariance24,field.twist.covariance25,field.twist.covariance26,field.twist.covariance27,field.twist.covariance28,field.twist.covariance29,field.twist.covariance30,field.twist.covariance31,field.twist.covariance32,field.twist.covariance33,field.twist.covariance34,field.twist.covariance35
129528000000,3763,129524000000,map,base_link,-0.06183243542909622,-3.304748058319092,0.49419957399368286,-0.0043346025750091504,0.004529672554419476,0.6924137878859695,0.7214734735859542,0.0,0.0,0.0,0.0,0.0,0.0,0.0,0.0,0.0,0.0,0.0,0.0,0.0,0.0,0.0,0.0,0.0,0.0,0.0,0.0,0.0,0.0,0.0,0.0,0.0,0.0,0.0,0.0,0.0,0.0,0.0,0.0,0.0,0.0,0.0,0.0,0.31970782879634513,0.018501146569870956,0.011050916277957255,0.001729118055664003,-0.018831282854080204,-0.02114259451627731,0.0,0.0,0.0,0.0,0.0,0.0,0.0,0.0,0.0,0.0,0.0,0.0,0.0,0.0,0.0,0.0,0.0,0.0,0.0,0.0,0.0,0.0,0.0,0.0,0.0,0.0,0.0,0.0,0.0,0.0,0.0,0.0,0.0,0.0,0.0,0.0
129564000000,3764,129564000000,map,base_link,-0.06282781064510345,-3.292818784713745,0.4943590462207794,-0.004165971315727488,0.004355202783586649,0.6921359808852771,0.7217420925736713,0.0,0.0,0.0,0.0,0.0,0.0,0.0,0.0,0.0,0.0,0.0,0.0,0.0,0.0,0.0,0.0,0.0,0.0,0.0,0.0,0.0,0.0,0.0,0.0,0.0,0.0,0.0,0.0,0.0,0.0,0.0,0.0,0.0,0.0,0.0,0.0,0.31817513012515664,0.01777731928444142,0.010765293769762317,0.002317586913704872,-0.00857917778193951,-0.022464405745267868,0.0,0.0,0.0,0.0,0.0,0.0,0.0,0.0,0.0,0.0,0.0,0.0,0.0,0.0,0.0,0.0,0.0,0.0,0.0,0.0,0.0,0.0,0.0,0.0,0.0,0.0,0.0,0.0,0.0,0.0,0.0,0.0,0.0,0.0,0.0,0.0
129596000000,3765,129596000000,map,base_link,-0.06355946511030197,-3.2832438945770264,0.4944710433483124,-0.0040863127739353775,0.004259733267281898,0.6918268377027167,0.7220393503449516,0.0,0.0,0.0,0.0,0.0,0.0,0.0,0.0,0.0,0.0,0.0,0.0,0.0,0.0,0.0,0.0,0.0,0.0,0.0,0.0,0.0,0.0,0.0,0.0,0.0,0.0,0.0,0.0,0.0,0.0,0.0,0.0,0.0,0.0,0.0,0.0,0.31686334720554926,0.017049457417561673,0.009665361422044393,0.0005826935521326959,-0.00546001782640815,-0.021275680512189865,0.0,0.0,0.0,0.0,0.0,0.0,0.0,0.0,0.0,0.0,0.0,0.0,0.0,0.0,0.0,0.0,0.0,0.0,0.0,0.0,0.0,0.0,0.0,0.0,0.0,0.0,0.0,0.0,0.0,0.0,0.0,0.0,0.0,0.0,0.0,0.0
129624000000,3766,129624000000,map,base_link,-0.064328134059906,-3.2749712467193604,0.49451422691345215,-0.004058656837181116,0.0041946503322440026,0.6916840889609883,0.7221767042900705,0.0,0.0,0.0,0.0,0.0,0.0,0.0,0.0,0.0,0.0,0.0,0.0,0.0,0.0,0.0,0.0,0.0,0.0,0.0,0.0,0.0,0.0,0.0,0.0,0.0,0.0,0.0,0.0,0.0,0.0,0.0,0.0,0.0,0.0,0.0,0.0,0.31597650217309786,0.017124030574289833,0.008978901450811908,-0.001800771919079125,-0.0062749846838414695,-0.019342981278896332,0.0,0.0,0.0,0.0,0.0,0.0,0.0,0.0,0.0,0.0,0.0,0.0,0.0,0.0,0.0,0.0,0.0,0.0,0.0,0.0,0.0,0.0,0.0,0.0,0.0,0.0,0.0,0.0,0.0,0.0,0.0,0.0,0.0,0.0,0.0,0.0
129664000000,3767,129664000000,map,base_link,-0.06526196002960205,-3.263047695159912,0.4946008324623108,-0.0041491760686313715,0.004169242054842506,0.6913429194419157,0.7225029538247703,0.0,0.0,0.0,0.0,0.0,0.0,0.0,0.0,0.0,0.0,0.0,0.0,0.0,0.0,0.0,0.0,0.0,0.0,0.0,0.0,0.0,0.0,0.0,0.0,0.0,0.0,0.0,0.0,0.0,0.0,0.0,0.0,0.0,0.0,0.0,0.0,0.31497982335771796,0.016961637060699662,0.009297539644941566,-0.004290611483156681,0.008734066970646378,-0.02475624531507492,0.0,0.0,0.0,0.0,0.0,0.0,0.0,0.0,0.0,0.0,0.0,0.0,0.0,0.0,0.0,0.0,0.0,0.0,0.0,0.0,0.0,0.0,0.0,0.0,0.0,0.0,0.0,0.0,0.0,0.0,0.0,0.0,0.0,0.0,0.0,0.0
129696000000,3768,129696000000,map,base_link,-0.06588206440210342,-3.2534549236297607,0.4947105050086975,-0.004358759983774997,0.004279197105862257,0.6910746468486098,0.7227576551328557,0.0,0.0,0.0,0.0,0.0,0.0,0.0,0.0,0.0,0.0,0.0,0.0,0.0,0.0,0.0,0.0,0.0,0.0,0.0,0.0,0.0,0.0,0.0,0.0,0.0,0.0,0.0,0.0,0.0,0.0,0.0,0.0,0.0,0.0,0.0,0.0,0.31430113778810254,0.015962590773782422,0.009878276342391985,-0.002950093010440469,0.017286077141761776,-0.022194817662239078,0.0,0.0,0.0,0.0,0.0,0.0,0.0,0.0,0.0,0.0,0.0,0.0,0.0,0.0,0.0,0.0,0.0,0.0,0.0,0.0,0.0,0.0,0.0,0.0,0.0,0.0,0.0,0.0,0.0,0.0,0.0,0.0,0.0,0.0,0.0,0.0
129728000000,3769,129724000000,map,base_link,-0.06661570072174072,-3.245224714279175,0.4947586953639984,-0.004510946234239441,0.0043772722564104204,0.6909336669574297,0.7228908800039097,0.0,0.0,0.0,0.0,0.0,0.0,0.0,0.0,0.0,0.0,0.0,0.0,0.0,0.0,0.0,0.0,0.0,0.0,0.0,0.0,0.0,0.0,0.0,0.0,0.0,0.0,0.0,0.0,0.0,0.0,0.0,0.0,0.0,0.0,0.0,0.0,0.3136152065802404,0.015451425039644915,0.010198953596664617,-0.003561433870345354,0.017848979681730267,-0.018441870808601383,0.0,0.0,0.0,0.0,0.0,0.0,0.0,0.0,0.0,0.0,0.0,0.0,0.0,0.0,0.0,0.0,0.0,0.0,0.0,0.0,0.0,0.0,0.0,0.0,0.0,0.0,0.0,0.0,0.0,0.0,0.0,0.0,0.0,0.0,0.0,0.0
129760000000,3770,129760000000,map,base_link,-0.06748076528310776,-3.2333710193634033,0.49485769867897034,-0.0048869706722528715,0.004653190417687183,0.6906435530769721,0.7231638822638718,0.0,0.0,0.0,0.0,0.0,0.0,0.0,0.0,0.0,0.0,0.0,0.0,0.0,0.0,0.0,0.0,0.0,0.0,0.0,0.0,0.0,0.0,0.0,0.0,0.0,0.0,0.0,0.0,0.0,0.0,0.0,0.0,0.0,0.0,0.0,0.0,0.31272228190980883,0.015106718609371675,0.009971748295662714,-0.0061269900761544704,0.02868266589939594,-0.021465908735990528,0.0,0.0,0.0,0.0,0.0,0.0,0.0,0.0,0.0,0.0,0.0,0.0,0.0,0.0,0.0,0.0,0.0,0.0,0.0,0.0,0.0,0.0,0.0,0.0,0.0,0.0,0.0,0.0,0.0,0.0,0.0,0.0,0.0,0.0,0.0,0.0
129796000000,3771,129796000000,map,base_link,-0.06810785830020905,-3.2238237857818604,0.4949489235877991,-0.005361523936241917,0.005005193487824455,0.6903277691315932,0.7234596043093595,0.0,0.0,0.0,0.0,0.0,0.0,0.0,0.0,0.0,0.0,0.0,0.0,0.0,0.0,0.0,0.0,0.0,0.0,0.0,0.0,0.0,0.0,0.0,0.0,0.0,0.0,0.0,0.0,0.0,0.0,0.0,0.0,0.0,0.0,0.0,0.0,0.31367616216129934,0.014340423536432001,0.010848812112753556,-0.0023868856951594353,0.03085437417030334,-0.022361103445291523,0.0,0.0,0.0,0.0,0.0,0.0,0.0,0.0,0.0,0.0,0.0,0.0,0.0,0.0,0.0,0.0,0.0,0.0,0.0,0.0,0.0,0.0,0.0,0.0,0.0,0.0,0.0,0.0,0.0,0.0,0.0,0.0,0.0,0.0,0.0,0.0
129828000000,3772,129824000000,map,base_link,-0.0687868520617485,-3.215517997741699,0.4950035512447357,-0.005579721031535522,0.005181222866978068,0.6901768122911174,0.723600867374678,0.0,0.0,0.0,0.0,0.0,0.0,0.0,0.0,0.0,0.0,0.0,0.0,0.0,0.0,0.0,0.0,0.0,0.0,0.0,0.0,0.0,0.0,0.0,0.0,0.0,0.0,0.0,0.0,0.0,0.0,0.0,0.0,0.0,0.0,0.0,0.0,0.3141752844537611,0.013863940773457465,0.011359513304332835,-0.005834462586790323,0.027385625988245007,-0.02236389368772507,0.0,0.0,0.0,0.0,0.0,0.0,0.0,0.0,0.0,0.0,0.0,0.0,0.0,0.0,0.0,0.0,0.0,0.0,0.0,0.0,0.0,0.0,0.0,0.0,0.0,0.0,0.0,0.0,0.0,0.0,0.0,0.0,0.0,0.0,0.0,0.0
129864000000,3773,129864000000,map,base_link,-0.06958235800266266,-3.2035083770751953,0.49511975049972534,-0.006091119757848623,0.0055103060569570905,0.6898380517278551,0.7239172058145326,0.0,0.0,0.0,0.0,0.0,0.0,0.0,0.0,0.0,0.0,0.0,0.0,0.0,0.0,0.0,0.0,0.0,0.0,0.0,0.0,0.0,0.0,0.0,0.0,0.0,0.0,0.0,0.0,0.0,0.0,0.0,0.0,0.0,0.0,0.0,0.0,0.31514661650253034,0.014063024816789333,0.011685534056784339,-0.005081565119326115,0.02620523981750011,-0.02099031209945679,0.0,0.0,0.0,0.0,0.0,0.0,0.0,0.0,0.0,0.0,0.0,0.0,0.0,0.0,0.0,0.0,0.0,0.0,0.0,0.0,0.0,0.0,0.0,0.0,0.0,0.0,0.0,0.0,0.0,0.0,0.0,0.0,0.0,0.0,0.0,0.0
129892000000,3774,129892000000,map,base_link,-0.07010574638843536,-3.1937975883483887,0.49523594975471497,-0.006402944327850329,0.005661476471648698,0.6895466233925593,0.7241909324734536,0.0,0.0,0.0,0.0,0.0,0.0,0.0,0.0,0.0,0.0,0.0,0.0,0.0,0.0,0.0,0.0,0.0,0.0,0.0,0.0,0.0,0.0,0.0,0.0,0.0,0.0,0.0,0.0,0.0,0.0,0.0,0.0,0.0,0.0,0.0,0.0,0.31564214549444886,0.01413050829730199,0.01135144425932451,-0.0048340256325900555,0.010896337218582628,-0.017453711479902267,0.0,0.0,0.0,0.0,0.0,0.0,0.0,0.0,0.0,0.0,0.0,0.0,0.0,0.0,0.0,0.0,0.0,0.0,0.0,0.0,0.0,0.0,0.0,0.0,0.0,0.0,0.0,0.0,0.0,0.0,0.0,0.0,0.0,0.0,0.0,0.0
129924000000,3775,129924000000,map,base_link,-0.07079043984413147,-3.1854164600372314,0.495260626077652,-0.006462604262052325,0.005650999275480883,0.6893984864396667,0.7243313986999173,0.0,0.0,0.0,0.0,0.0,0.0,0.0,0.0,0.0,0.0,0.0,0.0,0.0,0.0,0.0,0.0,0.0,0.0,0.0,0.0,0.0,0.0,0.0,0.0,0.0,0.0,0.0,0.0,0.0,0.0,0.0,0.0,0.0,0.0,0.0,0.0,0.31627250867883216,0.01401400963273671,0.010934307410018645,-0.004233478102833033,0.0024909817147999976,-0.020410265773534775,0.0,0.0,0.0,0.0,0.0,0.0,0.0,0.0,0.0,0.0,0.0,0.0,0.0,0.0,0.0,0.0,0.0,0.0,0.0,0.0,0.0,0.0,0.0,0.0,0.0,0.0,0.0,0.0,0.0,0.0,0.0,0.0,0.0,0.0,0.0,0.0
129964000000,3776,129960000000,map,base_link,-0.07158567011356354,-3.173309087753296,0.4953247010707855,-0.006441028821086637,0.005562456855088749,0.6891294328125743,0.7245883983283355,0.0,0.0,0.0,0.0,0.0,0.0,0.0,0.0,0.0,0.0,0.0,0.0,0.0,0.0,0.0,0.0,0.0,0.0,0.0,0.0,0.0,0.0,0.0,0.0,0.0,0.0,0.0,0.0,0.0,0.0,0.0,0.0,0.0,0.0,0.0,0.0,0.3171841611921922,0.013960755926299945,0.010836435044467446,-0.0004248542245477438,-0.0051430515013635185,-0.020019270479679108,0.0,0.0,0.0,0.0,0.0,0.0,0.0,0.0,0.0,0.0,0.0,0.0,0.0,0.0,0.0,0.0,0.0,0.0,0.0,0.0,0.0,0.0,0.0,0.0,0.0,0.0,0.0,0.0,0.0,0.0,0.0,0.0,0.0,0.0,0.0,0.0
129996000000,3777,129996000000,map,base_link,-0.07210376858711243,-3.163525342941284,0.49540504813194275,-0.00628142833698931,0.005374140373084709,0.6888034480127668,0.7249010647240137,0.0,0.0,0.0,0.0,0.0,0.0,0.0,0.0,0.0,0.0,0.0,0.0,0.0,0.0,0.0,0.0,0.0,0.0,0.0,0.0,0.0,0.0,0.0,0.0,0.0,0.0,0.0,0.0,0.0,0.0,0.0,0.0,0.0,0.0,0.0,0.0,0.3173734684968085,0.013793999937148188,0.01045303260059631,0.0020373654551804066,-0.018783632665872577,-0.020800225436687466,0.0,0.0,0.0,0.0,0.0,0.0,0.0,0.0,0.0,0.0,0.0,0.0,0.0,0.0,0.0,0.0,0.0,0.0,0.0,0.0,0.0,0.0,0.0,0.0,0.0,0.0,0.0,0.0,0.0,0.0,0.0,0.0,0.0,0.0,0.0,0.0
130028000000,3778,130028000000,map,base_link,-0.07277952879667282,-3.1550893783569336,0.4954005479812622,-0.006094495498155574,0.005164608344688594,0.6886355863347711,0.7250637001927941,0.0,0.0,0.0,0.0,0.0,0.0,0.0,0.0,0.0,0.0,0.0,0.0,0.0,0.0,0.0,0.0,0.0,0.0,0.0,0.0,0.0,0.0,0.0,0.0,0.0,0.0,0.0,0.0,0.0,0.0,0.0,0.0,0.0,0.0,0.0,0.0,0.3174844133033773,0.013084139947075041,0.010125831963913565,0.0010940588545054197,-0.026003682985901836,-0.020626645535230633,0.0,0.0,0.0,0.0,0.0,0.0,0.0,0.0,0.0,0.0,0.0,0.0,0.0,0.0,0.0,0.0,0.0,0.0,0.0,0.0,0.0,0.0,0.0,0.0,0.0,0.0,0.0,0.0,0.0,0.0,0.0,0.0,0.0,0.0,0.0,0.0
130060000000,3779,130060000000,map,base_link,-0.0735509917140007,-3.1429247856140137,0.49542883038520813,-0.0057678790306878135,0.004866968082526264,0.6883289245479167,0.7253595723864296,0.0,0.0,0.0,0.0,0.0,0.0,0.0,0.0,0.0,0.0,0.0,0.0,0.0,0.0,0.0,0.0,0.0,0.0,0.0,0.0,0.0,0.0,0.0,0.0,0.0,0.0,0.0,0.0,0.0,0.0,0.0,0.0,0.0,0.0,0.0,0.0,0.3175085460102244,0.013242852849851772,0.009722994547215376,0.002196205547079444,-0.01909616403281689,-0.02164036780595779,0.0,0.0,0.0,0.0,0.0,0.0,0.0,0.0,0.0,0.0,0.0,0.0,0.0,0.0,0.0,0.0,0.0,0.0,0.0,0.0,0.0,0.0,0.0,0.0,0.0,0.0,0.0,0.0,0.0,0.0,0.0,0.0,0.0,0.0,0.0,0.0
130088000000,3780,130088000000,map,base_link,-0.07403964549303055,-3.1331288814544678,0.49548715353012085,-0.005501450814753578,0.0046393127446343356,0.6880447309825858,0.7256327234774507,0.0,0.0,0.0,0.0,0.0,0.0,0.0,0.0,0.0,0.0,0.0,0.0,0.0,0.0,0.0,0.0,0.0,0.0,0.0,0.0,0.0,0.0,0.0,0.0,0.0,0.0,0.0,0.0,0.0,0.0,0.0,0.0,0.0,0.0,0.0,0.0,0.3170870082243467,0.01303803882250308,0.009886069191291237,0.004219751805067062,-0.018213668838143352,-0.018717493861913678,0.0,0.0,0.0,0.0,0.0,0.0,0.0,0.0,0.0,0.0,0.0,0.0,0.0,0.0,0.0,0.0,0.0,0.0,0.0,0.0,0.0,0.0,0.0,0.0,0.0,0.0,0.0,0.0,0.0,0.0,0.0,0.0,0.0,0.0,0.0,0.0
130112000000,3781,130112000000,map,base_link,-0.07472079247236252,-3.1246795654296875,0.4954809844493866,-0.005384749772062674,0.004566272626596242,0.6879355706449426,0.7257375005428487,0.0,0.0,0.0,0.0,0.0,0.0,0.0,0.0,0.0,0.0,0.0,0.0,0.0,0.0,0.0,0.0,0.0,0.0,0.0,0.0,0.0,0.0,0.0,0.0,0.0,0.0,0.0,0.0,0.0,0.0,0.0,0.0,0.0,0.0,0.0,0.0,0.3169289966126288,0.012884280595548218,0.009971310056712743,0.00508818868547678,-0.01809163019061089,-0.019240796566009518,0.0,0.0,0.0,0.0,0.0,0.0,0.0,0.0,0.0,0.0,0.0,0.0,0.0,0.0,0.0,0.0,0.0,0.0,0.0,0.0,0.0,0.0,0.0,0.0,0.0,0.0,0.0,0.0,0.0,0.0,0.0,0.0,0.0,0.0,0.0,0.0
130164000000,3782,130164000000,map,base_link,-0.0754757821559906,-3.1125149726867676,0.4955180585384369,-0.005420953091752897,0.004604239199206589,0.6876528153408171,0.7260049143941163,0.0,0.0,0.0,0.0,0.0,0.0,0.0,0.0,0.0,0.0,0.0,0.0,0.0,0.0,0.0,0.0,0.0,0.0,0.0,0.0,0.0,0.0,0.0,0.0,0.0,0.0,0.0,0.0,0.0,0.0,0.0,0.0,0.0,0.0,0.0,0.0,0.3165754073709101,0.012490824851364334,0.010180493088424166,-0.0021453076042234898,0.014161061495542525,-0.01840057224035263,0.0,0.0,0.0,0.0,0.0,0.0,0.0,0.0,0.0,0.0,0.0,0.0,0.0,0.0,0.0,0.0,0.0,0.0,0.0,0.0,0.0,0.0,0.0,0.0,0.0,0.0,0.0,0.0,0.0,0.0,0.0,0.0,0.0,0.0,0.0,0.0
130196000000,3783,130196000000,map,base_link,-0.07603170722723007,-3.102742910385132,0.4955703020095825,-0.005831146965612919,0.0050786378698723855,0.6873736846656636,0.7262628873513173,0.0,0.0,0.0,0.0,0.0,0.0,0.0,0.0,0.0,0.0,0.0,0.0,0.0,0.0,0.0,0.0,0.0,0.0,0.0,0.0,0.0,0.0,0.0,0.0,0.0,0.0,0.0,0.0,0.0,0.0,0.0,0.0,0.0,0.0,0.0,0.0,0.3161573351049777,0.012293306716651606,0.011016237299954428,0.00261510256677866,0.03983459621667862,-0.01599071174860001,0.0,0.0,0.0,0.0,0.0,0.0,0.0,0.0,0.0,0.0,0.0,0.0,0.0,0.0,0.0,0.0,0.0,0.0,0.0,0.0,0.0,0.0,0.0,0.0,0.0,0.0,0.0,0.0,0.0,0.0,0.0,0.0,0.0,0.0,0.0,0.0
130228000000,3784,130228000000,map,base_link,-0.07669424265623093,-3.0942320823669434,0.49558261036872864,-0.00614646923013265,0.005445426128553537,0.6872228489973772,0.7264003203217773,0.0,0.0,0.0,0.0,0.0,0.0,0.0,0.0,0.0,0.0,0.0,0.0,0.0,0.0,0.0,0.0,0.0,0.0,0.0,0.0,0.0,0.0,0.0,0.0,0.0,0.0,0.0,0.0,0.0,0.0,0.0,0.0,0.0,0.0,0.0,0.0,0.31666322709536926,0.012313956663224126,0.011794344942571675,0.003425798611715436,0.04818892106413841,-0.02021720819175244,0.0,0.0,0.0,0.0,0.0,0.0,0.0,0.0,0.0,0.0,0.0,0.0,0.0,0.0,0.0,0.0,0.0,0.0,0.0,0.0,0.0,0.0,0.0,0.0,0.0,0.0,0.0,0.0,0.0,0.0,0.0,0.0,0.0,0.0,0.0,0.0
130256000000,3785,130256000000,map,base_link,-0.07743319869041443,-3.0819461345672607,0.4956307113170624,-0.0070154357070959595,0.006347657252658262,0.6869020350890463,0.7266885125693607,0.0,0.0,0.0,0.0,0.0,0.0,0.0,0.0,0.0,0.0,0.0,0.0,0.0,0.0,0.0,0.0,0.0,0.0,0.0,0.0,0.0,0.0,0.0,0.0,0.0,0.0,0.0,0.0,0.0,0.0,0.0,0.0,0.0,0.0,0.0,0.0,0.31779056450616955,0.01187433149426776,0.011489195684606535,-0.00018007418839260936,0.06349454820156097,-0.01953426748514176,0.0,0.0,0.0,0.0,0.0,0.0,0.0,0.0,0.0,0.0,0.0,0.0,0.0,0.0,0.0,0.0,0.0,0.0,0.0,0.0,0.0,0.0,0.0,0.0,0.0,0.0,0.0,0.0,0.0,0.0,0.0,0.0,0.0,0.0,0.0,0.0
130292000000,3786,130292000000,map,base_link,-0.07787171751260757,-3.0720059871673584,0.49569085240364075,-0.007827791948894226,0.0072084861157159464,0.6866712099706423,0.7268901720685952,0.0,0.0,0.0,0.0,0.0,0.0,0.0,0.0,0.0,0.0,0.0,0.0,0.0,0.0,0.0,0.0,0.0,0.0,0.0,0.0,0.0,0.0,0.0,0.0,0.0,0.0,0.0,0.0,0.0,0.0,0.0,0.0,0.0,0.0,0.0,0.0,0.3200424411317527,0.011063718002775521,0.012547451929145035,-0.0005650785751640797,0.06188436970114708,-0.016570450738072402,0.0,0.0,0.0,0.0,0.0,0.0,0.0,0.0,0.0,0.0,0.0,0.0,0.0,0.0,0.0,0.0,0.0,0.0,0.0,0.0,0.0,0.0,0.0,0.0,0.0,0.0,0.0,0.0,0.0,0.0,0.0,0.0,0.0,0.0,0.0,0.0
130336000000,3787,130324000000,map,base_link,-0.07851946353912354,-3.0633482933044434,0.49566617608070374,-0.008217931743079096,0.007603166738919483,0.6865289762107192,0.72701622143869,0.0,0.0,0.0,0.0,0.0,0.0,0.0,0.0,0.0,0.0,0.0,0.0,0.0,0.0,0.0,0.0,0.0,0.0,0.0,0.0,0.0,0.0,0.0,0.0,0.0,0.0,0.0,0.0,0.0,0.0,0.0,0.0,0.0,0.0,0.0,0.0,0.32172409752829817,0.010865058616238335,0.012871874946620811,-0.0011833730386570096,0.05385611578822136,-0.0188850685954094,0.0,0.0,0.0,0.0,0.0,0.0,0.0,0.0,0.0,0.0,0.0,0.0,0.0,0.0,0.0,0.0,0.0,0.0,0.0,0.0,0.0,0.0,0.0,0.0,0.0,0.0,0.0,0.0,0.0,0.0,0.0,0.0,0.0,0.0,0.0,0.0
130360000000,3788,130360000000,map,base_link,-0.07921989262104034,-3.050793170928955,0.4956989288330078,-0.008671818069410248,0.008049592414519698,0.6862046522601609,0.7273123070007461,0.0,0.0,0.0,0.0,0.0,0.0,0.0,0.0,0.0,0.0,0.0,0.0,0.0,0.0,0.0,0.0,0.0,0.0,0.0,0.0,0.0,0.0,0.0,0.0,0.0,0.0,0.0,0.0,0.0,0.0,0.0,0.0,0.0,0.0,0.0,0.0,0.32520123387644334,0.01070518466295224,0.013700106086080919,0.00132614909671247,0.009601734578609465,-0.017863310873508453,0.0,0.0,0.0,0.0,0.0,0.0,0.0,0.0,0.0,0.0,0.0,0.0,0.0,0.0,0.0,0.0,0.0,0.0,0.0,0.0,0.0,0.0,0.0,0.0,0.0,0.0,0.0,0.0,0.0,0.0,0.0,0.0,0.0,0.0,0.0,0.0
130396000000,3789,130396000000,map,base_link,-0.07962780445814133,-3.040592670440674,0.4957645833492279,-0.008450013796574167,0.007786028311548259,0.6859158818104995,0.7275902035634918,0.0,0.0,0.0,0.0,0.0,0.0,0.0,0.0,0.0,0.0,0.0,0.0,0.0,0.0,0.0,0.0,0.0,0.0,0.0,0.0,0.0,0.0,0.0,0.0,0.0,0.0,0.0,0.0,0.0,0.0,0.0,0.0,0.0,0.0,0.0,0.0,0.3281033595514711,0.010451078287125715,0.013866197541232129,-0.0006959810853004456,-0.03010809235274792,-0.020111329853534695,0.0,0.0,0.0,0.0,0.0,0.0,0.0,0.0,0.0,0.0,0.0,0.0,0.0,0.0,0.0,0.0,0.0,0.0,0.0,0.0,0.0,0.0,0.0,0.0,0.0,0.0,0.0,0.0,0.0,0.0,0.0,0.0,0.0,0.0,0.0,0.0
130428000000,3790,130428000000,map,base_link,-0.08018556237220764,-3.0317158699035645,0.49577879905700684,-0.008228237285505003,0.007513477607323307,0.6858001333935984,0.7277046875749374,0.0,0.0,0.0,0.0,0.0,0.0,0.0,0.0,0.0,0.0,0.0,0.0,0.0,0.0,0.0,0.0,0.0,0.0,0.0,0.0,0.0,0.0,0.0,0.0,0.0,0.0,0.0,0.0,0.0,0.0,0.0,0.0,0.0,0.0,0.0,0.0,0.3297132456064909,0.010731439644817924,0.014038194530158123,-0.0022754406090825796,-0.0460188165307045,-0.021132862195372575,0.0,0.0,0.0,0.0,0.0,0.0,0.0,0.0,0.0,0.0,0.0,0.0,0.0,0.0,0.0,0.0,0.0,0.0,0.0,0.0,0.0,0.0,0.0,0.0,0.0,0.0,0.0,0.0,0.0,0.0,0.0,0.0,0.0,0.0,0.0,0.0
130464000000,3791,130464000000,map,base_link,-0.08089422434568405,-3.0189461708068848,0.4958154261112213,-0.007435919133098053,0.006602786491196784,0.6855250870114834,0.7279811669499019,0.0,0.0,0.0,0.0,0.0,0.0,0.0,0.0,0.0,0.0,0.0,0.0,0.0,0.0,0.0,0.0,0.0,0.0,0.0,0.0,0.0,0.0,0.0,0.0,0.0,0.0,0.0,0.0,0.0,0.0,0.0,0.0,0.0,0.0,0.0,0.0,0.3314498867543726,0.010008928874340985,0.013074688676577143,-0.000593323667999357,-0.06549793481826782,-0.020643007010221474,0.0,0.0,0.0,0.0,0.0,0.0,0.0,0.0,0.0,0.0,0.0,0.0,0.0,0.0,0.0,0.0,0.0,0.0,0.0,0.0,0.0,0.0,0.0,0.0,0.0,0.0,0.0,0.0,0.0,0.0,0.0,0.0,0.0,0.0,0.0,0.0
130496000000,3792,130496000000,map,base_link,-0.0812855139374733,-3.00862193107605,0.4958556592464447,-0.006458862864907317,0.005532065684589855,0.6851744384027628,0.7283293710414087,0.0,0.0,0.0,0.0,0.0,0.0,0.0,0.0,0.0,0.0,0.0,0.0,0.0,0.0,0.0,0.0,0.0,0.0,0.0,0.0,0.0,0.0,0.0,0.0,0.0,0.0,0.0,0.0,0.0,0.0,0.0,0.0,0.0,0.0,0.0,0.0,0.33293364497580336,0.009485472108702174,0.011076795080923886,0.0029204317834228277,-0.06637696176767349,-0.022692205384373658,0.0,0.0,0.0,0.0,0.0,0.0,0.0,0.0,0.0,0.0,0.0,0.0,0.0,0.0,0.0,0.0,0.0,0.0,0.0,0.0,0.0,0.0,0.0,0.0,0.0,0.0,0.0,0.0,0.0,0.0,0.0,0.0,0.0,0.0,0.0,0.0
130528000000,3793,130524000000,map,base_link,-0.08192867040634155,-2.9996278285980225,0.4957827627658844,-0.0061033457601164165,0.00513870441414903,0.6850553511652063,0.728447362460904,0.0,0.0,0.0,0.0,0.0,0.0,0.0,0.0,0.0,0.0,0.0,0.0,0.0,0.0,0.0,0.0,0.0,0.0,0.0,0.0,0.0,0.0,0.0,0.0,0.0,0.0,0.0,0.0,0.0,0.0,0.0,0.0,0.0,0.0,0.0,0.0,0.3326526015344369,0.009389045901306257,0.009745195406764266,-0.001900073024444282,-0.06543143838644028,-0.020870851352810853,0.0,0.0,0.0,0.0,0.0,0.0,0.0,0.0,0.0,0.0,0.0,0.0,0.0,0.0,0.0,0.0,0.0,0.0,0.0,0.0,0.0,0.0,0.0,0.0,0.0,0.0,0.0,0.0,0.0,0.0,0.0,0.0,0.0,0.0,0.0,0.0
130560000000,3794,130560000000,map,base_link,-0.08260055631399155,-2.986708641052246,0.49571460485458374,-0.005269870222321819,0.004173565167374749,0.6847404799625155,0.7287559959300152,0.0,0.0,0.0,0.0,0.0,0.0,0.0,0.0,0.0,0.0,0.0,0.0,0.0,0.0,0.0,0.0,0.0,0.0,0.0,0.0,0.0,0.0,0.0,0.0,0.0,0.0,0.0,0.0,0.0,0.0,0.0,0.0,0.0,0.0,0.0,0.0,0.3322452703905992,0.009058721034764072,0.00848040554487242,-0.004826388321816921,-0.06317369639873505,-0.02173414081335067,0.0,0.0,0.0,0.0,0.0,0.0,0.0,0.0,0.0,0.0,0.0,0.0,0.0,0.0,0.0,0.0,0.0,0.0,0.0,0.0,0.0,0.0,0.0,0.0,0.0,0.0,0.0,0.0,0.0,0.0,0.0,0.0,0.0,0.0,0.0,0.0
130592000000,3795,130592000000,map,base_link,-0.08298354595899582,-2.976353883743286,0.49569064378738403,-0.004521550745582213,0.0033368700877986868,0.6844255310515728,0.7290611667721033,0.0,0.0,0.0,0.0,0.0,0.0,0.0,0.0,0.0,0.0,0.0,0.0,0.0,0.0,0.0,0.0,0.0,0.0,0.0,0.0,0.0,0.0,0.0,0.0,0.0,0.0,0.0,0.0,0.0,0.0,0.0,0.0,0.0,0.0,0.0,0.0,0.33066524374609085,0.008912579761982177,0.007899714992013912,0.0015551471151411533,-0.0550571084022522,-0.023432023823261254,0.0,0.0,0.0,0.0,0.0,0.0,0.0,0.0,0.0,0.0,0.0,0.0,0.0,0.0,0.0,0.0,0.0,0.0,0.0,0.0,0.0,0.0,0.0,0.0,0.0,0.0,0.0,0.0,0.0,0.0,0.0,0.0,0.0,0.0,0.0,0.0
130624000000,3796,130624000000,map,base_link,-0.08364047110080719,-2.967381000518799,0.49557238817214966,-0.004189520630668517,0.0029570814196673858,0.6842870707516804,0.7291948223312655,0.0,0.0,0.0,0.0,0.0,0.0,0.0,0.0,0.0,0.0,0.0,0.0,0.0,0.0,0.0,0.0,0.0,0.0,0.0,0.0,0.0,0.0,0.0,0.0,0.0,0.0,0.0,0.0,0.0,0.0,0.0,0.0,0.0,0.0,0.0,0.0,0.32888978216594933,0.009182046590066752,0.006412853691332406,0.0009159938781522214,-0.04798232764005661,-0.020673207938671105,0.0,0.0,0.0,0.0,0.0,0.0,0.0,0.0,0.0,0.0,0.0,0.0,0.0,0.0,0.0,0.0,0.0,0.0,0.0,0.0,0.0,0.0,0.0,0.0,0.0,0.0,0.0,0.0,0.0,0.0,0.0,0.0,0.0,0.0,0.0,0.0
130660000000,3797,130660000000,map,base_link,-0.08436357975006104,-2.9545881748199463,0.4954337775707245,-0.003696794295914275,0.0024063334448108814,0.6839257695269988,0.7295382532921786,0.0,0.0,0.0,0.0,0.0,0.0,0.0,0.0,0.0,0.0,0.0,0.0,0.0,0.0,0.0,0.0,0.0,0.0,0.0,0.0,0.0,0.0,0.0,0.0,0.0,0.0,0.0,0.0,0.0,0.0,0.0,0.0,0.0,0.0,0.0,0.0,0.3260042551715601,0.00963991343108389,0.005746907773687803,-0.0013679483672603965,-0.02033532410860062,-0.019658941775560376,0.0,0.0,0.0,0.0,0.0,0.0,0.0,0.0,0.0,0.0,0.0,0.0,0.0,0.0,0.0,0.0,0.0,0.0,0.0,0.0,0.0,0.0,0.0,0.0,0.0,0.0,0.0,0.0,0.0,0.0,0.0,0.0,0.0,0.0,0.0,0.0
130696000000,3798,130696000000,map,base_link,-0.08479642122983932,-2.944380044937134,0.49536722898483276,-0.003601866627972741,0.0022390807146898278,0.6836102582190462,0.7298350513993922,0.0,0.0,0.0,0.0,0.0,0.0,0.0,0.0,0.0,0.0,0.0,0.0,0.0,0.0,0.0,0.0,0.0,0.0,0.0,0.0,0.0,0.0,0.0,0.0,0.0,0.0,0.0,0.0,0.0,0.0,0.0,0.0,0.0,0.0,0.0,0.0,0.32429309698290215,0.009544048431485165,0.005716204089847484,-0.0024754011537879705,-0.004806966520845893,-0.020703168585896492,0.0,0.0,0.0,0.0,0.0,0.0,0.0,0.0,0.0,0.0,0.0,0.0,0.0,0.0,0.0,0.0,0.0,0.0,0.0,0.0,0.0,0.0,0.0,0.0,0.0,0.0,0.0,0.0,0.0,0.0,0.0,0.0,0.0,0.0,0.0,0.0
130728000000,3799,130728000000,map,base_link,-0.0855213850736618,-2.9355216026306152,0.49521782994270325,-0.0036229209955964885,0.0022467046432997117,0.6834768186624828,0.7299598929988595,0.0,0.0,0.0,0.0,0.0,0.0,0.0,0.0,0.0,0.0,0.0,0.0,0.0,0.0,0.0,0.0,0.0,0.0,0.0,0.0,0.0,0.0,0.0,0.0,0.0,0.0,0.0,0.0,0.0,0.0,0.0,0.0,0.0,0.0,0.0,0.0,0.3223812732952333,0.010437255755906788,0.005241791829413828,-3.949873644160107e-06,0.004294565878808496,-0.023216167464852333,0.0,0.0,0.0,0.0,0.0,0.0,0.0,0.0,0.0,0.0,0.0,0.0,0.0,0.0,0.0,0.0,0.0,0.0,0.0,0.0,0.0,0.0,0.0,0.0,0.0,0.0,0.0,0.0,0.0,0.0,0.0,0.0,0.0,0.0,0.0,0.0
130760000000,3800,130760000000,map,base_link,-0.08633602410554886,-2.922905206680298,0.49505624175071716,-0.0038324664418369543,0.002459280958320105,0.6831408608646462,0.7302725857363179,0.0,0.0,0.0,0.0,0.0,0.0,0.0,0.0,0.0,0.0,0.0,0.0,0.0,0.0,0.0,0.0,0.0,0.0,0.0,0.0,0.0,0.0,0.0,0.0,0.0,0.0,0.0,0.0,0.0,0.0,0.0,0.0,0.0,0.0,0.0,0.0,0.3196055546383455,0.010909410454084284,0.005578755453558749,0.004454886075109243,0.02224970050156116,-0.023747900500893596,0.0,0.0,0.0,0.0,0.0,0.0,0.0,0.0,0.0,0.0,0.0,0.0,0.0,0.0,0.0,0.0,0.0,0.0,0.0,0.0,0.0,0.0,0.0,0.0,0.0,0.0,0.0,0.0,0.0,0.0,0.0,0.0,0.0,0.0,0.0,0.0
130792000000,3801,130792000000,map,base_link,-0.08684469759464264,-2.9128470420837402,0.49496856331825256,-0.004137448034697181,0.002826745748006113,0.6828189564066103,0.7305704664907028,0.0,0.0,0.0,0.0,0.0,0.0,0.0,0.0,0.0,0.0,0.0,0.0,0.0,0.0,0.0,0.0,0.0,0.0,0.0,0.0,0.0,0.0,0.0,0.0,0.0,0.0,0.0,0.0,0.0,0.0,0.0,0.0,0.0,0.0,0.0,0.0,0.3175663797710653,0.011272559545612286,0.005837940018766693,0.002244132338091731,0.024254243820905682,-0.019752167165279392,0.0,0.0,0.0,0.0,0.0,0.0,0.0,0.0,0.0,0.0,0.0,0.0,0.0,0.0,0.0,0.0,0.0,0.0,0.0,0.0,0.0,0.0,0.0,0.0,0.0,0.0,0.0,0.0,0.0,0.0,0.0,0.0,0.0,0.0,0.0,0.0
130828000000,3802,130828000000,map,base_link,-0.08763944357633591,-2.904109477996826,0.49480390548706055,-0.004296719699289866,0.00301405420416359,0.6826531322653221,0.7307238151648316,0.0,0.0,0.0,0.0,0.0,0.0,0.0,0.0,0.0,0.0,0.0,0.0,0.0,0.0,0.0,0.0,0.0,0.0,0.0,0.0,0.0,0.0,0.0,0.0,0.0,0.0,0.0,0.0,0.0,0.0,0.0,0.0,0.0,0.0,0.0,0.0,0.3162806293059666,0.0109129546201326,0.006012693440756804,0.002804609015583992,0.024572683498263356,-0.023390492424368862,0.0,0.0,0.0,0.0,0.0,0.0,0.0,0.0,0.0,0.0,0.0,0.0,0.0,0.0,0.0,0.0,0.0,0.0,0.0,0.0,0.0,0.0,0.0,0.0,0.0,0.0,0.0,0.0,0.0,0.0,0.0,0.0,0.0,0.0,0.0,0.0
130864000000,3803,130864000000,map,base_link,-0.08851069211959839,-2.8916356563568115,0.4946362376213074,-0.004597070036738672,0.0034264643684061963,0.6822877480646911,0.7310612981517486,0.0,0.0,0.0,0.0,0.0,0.0,0.0,0.0,0.0,0.0,0.0,0.0,0.0,0.0,0.0,0.0,0.0,0.0,0.0,0.0,0.0,0.0,0.0,0.0,0.0,0.0,0.0,0.0,0.0,0.0,0.0,0.0,0.0,0.0,0.0,0.0,0.31466173758165406,0.011101584885272056,0.0064456091406999575,0.0030104287434369326,0.026426482945680615,-0.021589891985058788,0.0,0.0,0.0,0.0,0.0,0.0,0.0,0.0,0.0,0.0,0.0,0.0,0.0,0.0,0.0,0.0,0.0,0.0,0.0,0.0,0.0,0.0,0.0,0.0,0.0,0.0,0.0,0.0,0.0,0.0,0.0,0.0,0.0,0.0,0.0,0.0
130896000000,3804,130896000000,map,base_link,-0.08904527872800827,-2.881681203842163,0.4945458173751831,-0.004824808474715701,0.00378476798080553,0.6820210217338898,0.7313069510582942,0.0,0.0,0.0,0.0,0.0,0.0,0.0,0.0,0.0,0.0,0.0,0.0,0.0,0.0,0.0,0.0,0.0,0.0,0.0,0.0,0.0,0.0,0.0,0.0,0.0,0.0,0.0,0.0,0.0,0.0,0.0,0.0,0.0,0.0,0.0,0.0,0.31341404981111837,0.011393547457183545,0.006920557410284554,0.003827591659501195,0.020807927474379536,-0.016298143193125728,0.0,0.0,0.0,0.0,0.0,0.0,0.0,0.0,0.0,0.0,0.0,0.0,0.0,0.0,0.0,0.0,0.0,0.0,0.0,0.0,0.0,0.0,0.0,0.0,0.0,0.0,0.0,0.0,0.0,0.0,0.0,0.0,0.0,0.0,0.0,0.0
130924000000,3805,130924000000,map,base_link,-0.08988004177808762,-2.8730010986328125,0.4943864047527313,-0.00490882875228958,0.003915387773262965,0.6818641511637323,0.7314519362171716,0.0,0.0,0.0,0.0,0.0,0.0,0.0,0.0,0.0,0.0,0.0,0.0,0.0,0.0,0.0,0.0,0.0,0.0,0.0,0.0,0.0,0.0,0.0,0.0,0.0,0.0,0.0,0.0,0.0,0.0,0.0,0.0,0.0,0.0,0.0,0.0,0.3120959994813868,0.011567646504607842,0.00669368256028034,0.003992886748164892,0.014727201312780377,-0.02160337381064892,0.0,0.0,0.0,0.0,0.0,0.0,0.0,0.0,0.0,0.0,0.0,0.0,0.0,0.0,0.0,0.0,0.0,0.0,0.0,0.0,0.0,0.0,0.0,0.0,0.0,0.0,0.0,0.0,0.0,0.0,0.0,0.0,0.0,0.0,0.0,0.0
130964000000,3806,130964000000,map,base_link,-0.09080769121646881,-2.860607862472534,0.4942161440849304,-0.004873741171632007,0.004023604745898496,0.6815616474269014,0.7317335351171412,0.0,0.0,0.0,0.0,0.0,0.0,0.0,0.0,0.0,0.0,0.0,0.0,0.0,0.0,0.0,0.0,0.0,0.0,0.0,0.0,0.0,0.0,0.0,0.0,0.0,0.0,0.0,0.0,0.0,0.0,0.0,0.0,0.0,0.0,0.0,0.0,0.3115749511213836,0.011573184274735065,0.006808337894919003,0.004106487147510052,-0.006455992348492148,-0.020423797890543938,0.0,0.0,0.0,0.0,0.0,0.0,0.0,0.0,0.0,0.0,0.0,0.0,0.0,0.0,0.0,0.0,0.0,0.0,0.0,0.0,0.0,0.0,0.0,0.0,0.0,0.0,0.0,0.0,0.0,0.0,0.0,0.0,0.0,0.0,0.0,0.0
130996000000,3807,130996000000,map,base_link,-0.09137144684791565,-2.8506927490234375,0.49412915110588074,-0.004545348321512995,0.0037203539726413746,0.6812463837316839,0.732030675667499,0.0,0.0,0.0,0.0,0.0,0.0,0.0,0.0,0.0,0.0,0.0,0.0,0.0,0.0,0.0,0.0,0.0,0.0,0.0,0.0,0.0,0.0,0.0,0.0,0.0,0.0,0.0,0.0,0.0,0.0,0.0,0.0,0.0,0.0,0.0,0.0,0.3109154905252054,0.011484569569803297,0.0069179130742361115,0.001403877162374556,-0.03342048451304436,-0.021897647529840466,0.0,0.0,0.0,0.0,0.0,0.0,0.0,0.0,0.0,0.0,0.0,0.0,0.0,0.0,0.0,0.0,0.0,0.0,0.0,0.0,0.0,0.0,0.0,0.0,0.0,0.0,0.0,0.0,0.0,0.0,0.0,0.0,0.0,0.0,0.0,0.0
131024000000,3808,131024000000,map,base_link,-0.0922466367483139,-2.8420259952545166,0.49398767948150635,-0.00421548806959407,0.003418316403004085,0.6810828486911056,0.7321862871005574,0.0,0.0,0.0,0.0,0.0,0.0,0.0,0.0,0.0,0.0,0.0,0.0,0.0,0.0,0.0,0.0,0.0,0.0,0.0,0.0,0.0,0.0,0.0,0.0,0.0,0.0,0.0,0.0,0.0,0.0,0.0,0.0,0.0,0.0,0.0,0.0,0.30996549445285304,0.012169168087652461,0.007477920160272094,0.005126472096890211,-0.03744146227836609,-0.019982354715466496,0.0,0.0,0.0,0.0,0.0,0.0,0.0,0.0,0.0,0.0,0.0,0.0,0.0,0.0,0.0,0.0,0.0,0.0,0.0,0.0,0.0,0.0,0.0,0.0,0.0,0.0,0.0,0.0,0.0,0.0,0.0,0.0,0.0,0.0,0.0,0.0
131060000000,3809,131060000000,map,base_link,-0.09324134141206741,-2.829684257507324,0.49385887384414673,-0.0037832990972806466,0.0029682374929048674,0.6808186011218325,0.7324363733287308,0.0,0.0,0.0,0.0,0.0,0.0,0.0,0.0,0.0,0.0,0.0,0.0,0.0,0.0,0.0,0.0,0.0,0.0,0.0,0.0,0.0,0.0,0.0,0.0,0.0,0.0,0.0,0.0,0.0,0.0,0.0,0.0,0.0,0.0,0.0,0.0,0.3076334050267575,0.012660777079509184,0.006623590569036069,0.0027294582687318325,-0.03411056473851204,-0.021080352365970608,0.0,0.0,0.0,0.0,0.0,0.0,0.0,0.0,0.0,0.0,0.0,0.0,0.0,0.0,0.0,0.0,0.0,0.0,0.0,0.0,0.0,0.0,0.0,0.0,0.0,0.0,0.0,0.0,0.0,0.0,0.0,0.0,0.0,0.0,0.0,0.0
131096000000,3810,131096000000,map,base_link,-0.09386533498764038,-2.8198728561401367,0.49378612637519836,-0.0033029914302218156,0.0024752025477305715,0.6805186472693364,0.7327192155607314,0.0,0.0,0.0,0.0,0.0,0.0,0.0,0.0,0.0,0.0,0.0,0.0,0.0,0.0,0.0,0.0,0.0,0.0,0.0,0.0,0.0,0.0,0.0,0.0,0.0,0.0,0.0,0.0,0.0,0.0,0.0,0.0,0.0,0.0,0.0,0.0,0.3057348218787991,0.012989137567815024,0.005937103787992035,0.0006529303500428796,-0.034237004816532135,-0.01988626644015312,0.0,0.0,0.0,0.0,0.0,0.0,0.0,0.0,0.0,0.0,0.0,0.0,0.0,0.0,0.0,0.0,0.0,0.0,0.0,0.0,0.0,0.0,0.0,0.0,0.0,0.0,0.0,0.0,0.0,0.0,0.0,0.0,0.0,0.0,0.0,0.0
131124000000,3811,131124000000,map,base_link,-0.0948125422000885,-2.8113107681274414,0.49364393949508667,-0.0030309238918705657,0.002211380151255392,0.6803473651111662,0.732880298181562,0.0,0.0,0.0,0.0,0.0,0.0,0.0,0.0,0.0,0.0,0.0,0.0,0.0,0.0,0.0,0.0,0.0,0.0,0.0,0.0,0.0,0.0,0.0,0.0,0.0,0.0,0.0,0.0,0.0,0.0,0.0,0.0,0.0,0.0,0.0,0.0,0.30373099771808193,0.01348110110697828,0.006100171323255626,0.0036096039693802595,-0.03339691460132599,-0.019280035048723217,0.0,0.0,0.0,0.0,0.0,0.0,0.0,0.0,0.0,0.0,0.0,0.0,0.0,0.0,0.0,0.0,0.0,0.0,0.0,0.0,0.0,0.0,0.0,0.0,0.0,0.0,0.0,0.0,0.0,0.0,0.0,0.0,0.0,0.0,0.0,0.0
131160000000,3812,131160000000,map,base_link,-0.0958891212940216,-2.7991671562194824,0.4935086667537689,-0.0028305720973928242,0.002067859101455289,0.6800750569571153,0.733134146015965,0.0,0.0,0.0,0.0,0.0,0.0,0.0,0.0,0.0,0.0,0.0,0.0,0.0,0.0,0.0,0.0,0.0,0.0,0.0,0.0,0.0,0.0,0.0,0.0,0.0,0.0,0.0,0.0,0.0,0.0,0.0,0.0,0.0,0.0,0.0,0.0,0.30082338290266164,0.01352276503233407,0.005577844542024495,0.006164383143186569,0.003465523244813082,-0.021358225494623184,0.0,0.0,0.0,0.0,0.0,0.0,0.0,0.0,0.0,0.0,0.0,0.0,0.0,0.0,0.0,0.0,0.0,0.0,0.0,0.0,0.0,0.0,0.0,0.0,0.0,0.0,0.0,0.0,0.0,0.0,0.0,0.0,0.0,0.0,0.0,0.0
131192000000,3813,131192000000,map,base_link,-0.09657083451747894,-2.789529800415039,0.49344688653945923,-0.003029188503614936,0.0023611276982194395,0.6797334488474005,0.7334492016111182,0.0,0.0,0.0,0.0,0.0,0.0,0.0,0.0,0.0,0.0,0.0,0.0,0.0,0.0,0.0,0.0,0.0,0.0,0.0,0.0,0.0,0.0,0.0,0.0,0.0,0.0,0.0,0.0,0.0,0.0,0.0,0.0,0.0,0.0,0.0,0.0,0.29890962087342404,0.013747917793848572,0.006289391956846604,0.0042683640494942665,0.030401501804590222,-0.023680869489908222,0.0,0.0,0.0,0.0,0.0,0.0,0.0,0.0,0.0,0.0,0.0,0.0,0.0,0.0,0.0,0.0,0.0,0.0,0.0,0.0,0.0,0.0,0.0,0.0,0.0,0.0,0.0,0.0,0.0,0.0,0.0,0.0,0.0,0.0,0.0,0.0
131224000000,3814,131224000000,map,base_link,-0.09755165874958038,-2.7811026573181152,0.4933217465877533,-0.003243218267523479,0.002634433711836015,0.6795705064968793,0.7335984040890248,0.0,0.0,0.0,0.0,0.0,0.0,0.0,0.0,0.0,0.0,0.0,0.0,0.0,0.0,0.0,0.0,0.0,0.0,0.0,0.0,0.0,0.0,0.0,0.0,0.0,0.0,0.0,0.0,0.0,0.0,0.0,0.0,0.0,0.0,0.0,0.0,0.29704135402223353,0.01353520776861423,0.006643174056467422,0.004619091283529997,0.03771521896123886,-0.02154381945729256,0.0,0.0,0.0,0.0,0.0,0.0,0.0,0.0,0.0,0.0,0.0,0.0,0.0,0.0,0.0,0.0,0.0,0.0,0.0,0.0,0.0,0.0,0.0,0.0,0.0,0.0,0.0,0.0,0.0,0.0,0.0,0.0,0.0,0.0,0.0,0.0
131264000000,3815,131264000000,map,base_link,-0.09865514189004898,-2.769146203994751,0.4931986331939697,-0.0038789340214442393,0.0034159004707380028,0.6792295332240701,0.7339077672254507,0.0,0.0,0.0,0.0,0.0,0.0,0.0,0.0,0.0,0.0,0.0,0.0,0.0,0.0,0.0,0.0,0.0,0.0,0.0,0.0,0.0,0.0,0.0,0.0,0.0,0.0,0.0,0.0,0.0,0.0,0.0,0.0,0.0,0.0,0.0,0.0,0.29504160028309623,0.013391560438034156,0.006818337978102494,0.003873430658131838,0.061341989785432816,-0.02434205077588559,0.0,0.0,0.0,0.0,0.0,0.0,0.0,0.0,0.0,0.0,0.0,0.0,0.0,0.0,0.0,0.0,0.0,0.0,0.0,0.0,0.0,0.0,0.0,0.0,0.0,0.0,0.0,0.0,0.0,0.0,0.0,0.0,0.0,0.0,0.0,0.0
131292000000,3816,131296000000,map,base_link,-0.09934122115373611,-2.7596230506896973,0.49314263463020325,-0.004737771229824867,0.00440483641881364,0.6788462813938485,0.7342519067802543,0.0,0.0,0.0,0.0,0.0,0.0,0.0,0.0,0.0,0.0,0.0,0.0,0.0,0.0,0.0,0.0,0.0,0.0,0.0,0.0,0.0,0.0,0.0,0.0,0.0,0.0,0.0,0.0,0.0,0.0,0.0,0.0,0.0,0.0,0.0,0.0,0.294782464149456,0.01361235203689192,0.007857707739489721,0.004086646717041731,0.06495330482721329,-0.02352514676749707,0.0,0.0,0.0,0.0,0.0,0.0,0.0,0.0,0.0,0.0,0.0,0.0,0.0,0.0,0.0,0.0,0.0,0.0,0.0,0.0,0.0,0.0,0.0,0.0,0.0,0.0,0.0,0.0,0.0,0.0,0.0,0.0,0.0,0.0,0.0,0.0
131324000000,3817,131324000000,map,base_link,-0.10032680630683899,-2.751232862472534,0.4930282533168793,-0.005174810701422078,0.004872866933217971,0.678671843490396,0.7344072100144828,0.0,0.0,0.0,0.0,0.0,0.0,0.0,0.0,0.0,0.0,0.0,0.0,0.0,0.0,0.0,0.0,0.0,0.0,0.0,0.0,0.0,0.0,0.0,0.0,0.0,0.0,0.0,0.0,0.0,0.0,0.0,0.0,0.0,0.0,0.0,0.0,0.29526289755898993,0.013545187466933433,0.008010949819315237,0.0009384358418174088,0.062253206968307495,-0.022067749872803695,0.0,0.0,0.0,0.0,0.0,0.0,0.0,0.0,0.0,0.0,0.0,0.0,0.0,0.0,0.0,0.0,0.0,0.0,0.0,0.0,0.0,0.0,0.0,0.0,0.0,0.0,0.0,0.0,0.0,0.0,0.0,0.0,0.0,0.0,0.0,0.0
131360000000,3818,131360000000,map,base_link,-0.10145514458417892,-2.739245891571045,0.4929178059101105,-0.005971951642794689,0.00575272077667999,0.6783061194807987,0.7347326416369037,0.0,0.0,0.0,0.0,0.0,0.0,0.0,0.0,0.0,0.0,0.0,0.0,0.0,0.0,0.0,0.0,0.0,0.0,0.0,0.0,0.0,0.0,0.0,0.0,0.0,0.0,0.0,0.0,0.0,0.0,0.0,0.0,0.0,0.0,0.0,0.0,0.29569656184027754,0.014394467025739262,0.00917646491323874,0.0005514013464562595,0.05934345722198486,-0.025350160896778114,0.0,0.0,0.0,0.0,0.0,0.0,0.0,0.0,0.0,0.0,0.0,0.0,0.0,0.0,0.0,0.0,0.0,0.0,0.0,0.0,0.0,0.0,0.0,0.0,0.0,0.0,0.0,0.0,0.0,0.0,0.0,0.0,0.0,0.0,0.0,0.0
131396000000,3819,131392000000,map,base_link,-0.1021646037697792,-2.72963547706604,0.4928863048553467,-0.006614657568844221,0.006438818056303893,0.6779640240481479,0.7350372263743797,0.0,0.0,0.0,0.0,0.0,0.0,0.0,0.0,0.0,0.0,0.0,0.0,0.0,0.0,0.0,0.0,0.0,0.0,0.0,0.0,0.0,0.0,0.0,0.0,0.0,0.0,0.0,0.0,0.0,0.0,0.0,0.0,0.0,0.0,0.0,0.0,0.2969344374770026,0.014754189315936434,0.01011578807611932,0.0005837714415974915,0.040617674589157104,-0.023159207776188854,0.0,0.0,0.0,0.0,0.0,0.0,0.0,0.0,0.0,0.0,0.0,0.0,0.0,0.0,0.0,0.0,0.0,0.0,0.0,0.0,0.0,0.0,0.0,0.0,0.0,0.0,0.0,0.0,0.0,0.0,0.0,0.0,0.0,0.0,0.0,0.0
131424000000,3820,131424000000,map,base_link,-0.10317548364400864,-2.7211294174194336,0.4928026795387268,-0.0068364686586449355,0.006705245279276487,0.6777917461706816,0.7351915496943804,0.0,0.0,0.0,0.0,0.0,0.0,0.0,0.0,0.0,0.0,0.0,0.0,0.0,0.0,0.0,0.0,0.0,0.0,0.0,0.0,0.0,0.0,0.0,0.0,0.0,0.0,0.0,0.0,0.0,0.0,0.0,0.0,0.0,0.0,0.0,0.0,0.2975801233992356,0.014920499779473873,0.010301459390631176,0.003996931482106447,0.030148711055517193,-0.022361673414707187,0.0,0.0,0.0,0.0,0.0,0.0,0.0,0.0,0.0,0.0,0.0,0.0,0.0,0.0,0.0,0.0,0.0,0.0,0.0,0.0,0.0,0.0,0.0,0.0,0.0,0.0,0.0,0.0,0.0,0.0,0.0,0.0,0.0,0.0,0.0,0.0
131464000000,3821,131460000000,map,base_link,-0.10431651771068573,-2.7089364528656006,0.4927605986595154,-0.007151511018596817,0.007079974290786849,0.6774707241622863,0.7354810458600896,0.0,0.0,0.0,0.0,0.0,0.0,0.0,0.0,0.0,0.0,0.0,0.0,0.0,0.0,0.0,0.0,0.0,0.0,0.0,0.0,0.0,0.0,0.0,0.0,0.0,0.0,0.0,0.0,0.0,0.0,0.0,0.0,0.0,0.0,0.0,0.0,0.3001869949019428,0.015382575173159187,0.011390225595775367,0.0029751237016171217,0.021038971841335293,-0.020802566781640056,0.0,0.0,0.0,0.0,0.0,0.0,0.0,0.0,0.0,0.0,0.0,0.0,0.0,0.0,0.0,0.0,0.0,0.0,0.0,0.0,0.0,0.0,0.0,0.0,0.0,0.0,0.0,0.0,0.0,0.0,0.0,0.0,0.0,0.0,0.0,0.0
131496000000,3822,131496000000,map,base_link,-0.10502954572439194,-2.6991333961486816,0.49278369545936584,-0.007270939976442021,0.007307752388063407,0.6771665951376097,0.735757526552143,0.0,0.0,0.0,0.0,0.0,0.0,0.0,0.0,0.0,0.0,0.0,0.0,0.0,0.0,0.0,0.0,0.0,0.0,0.0,0.0,0.0,0.0,0.0,0.0,0.0,0.0,0.0,0.0,0.0,0.0,0.0,0.0,0.0,0.0,0.0,0.0,0.30191912874387183,0.015229153030693993,0.012058063993187672,0.005097802262753248,0.004008262883871791,-0.01771666295826435,0.0,0.0,0.0,0.0,0.0,0.0,0.0,0.0,0.0,0.0,0.0,0.0,0.0,0.0,0.0,0.0,0.0,0.0,0.0,0.0,0.0,0.0,0.0,0.0,0.0,0.0,0.0,0.0,0.0,0.0,0.0,0.0,0.0,0.0,0.0,0.0
131524000000,3823,131524000000,map,base_link,-0.1060226708650589,-2.690418243408203,0.49275216460227966,-0.007240644269172388,0.007273840005804724,0.6770186096499539,0.7358943852717921,0.0,0.0,0.0,0.0,0.0,0.0,0.0,0.0,0.0,0.0,0.0,0.0,0.0,0.0,0.0,0.0,0.0,0.0,0.0,0.0,0.0,0.0,0.0,0.0,0.0,0.0,0.0,0.0,0.0,0.0,0.0,0.0,0.0,0.0,0.0,0.0,0.3039614188279197,0.015063847840138866,0.011823020636692393,0.0002486540761310607,-0.006375746335834267,-0.020306551828980446,0.0,0.0,0.0,0.0,0.0,0.0,0.0,0.0,0.0,0.0,0.0,0.0,0.0,0.0,0.0,0.0,0.0,0.0,0.0,0.0,0.0,0.0,0.0,0.0,0.0,0.0,0.0,0.0,0.0,0.0,0.0,0.0,0.0,0.0,0.0,0.0
131560000000,3824,131560000000,map,base_link,-0.10712143778800964,-2.677938222885132,0.4927588105201721,-0.007094234934481875,0.007133378133194853,0.6766706320977577,0.7362171590085786,0.0,0.0,0.0,0.0,0.0,0.0,0.0,0.0,0.0,0.0,0.0,0.0,0.0,0.0,0.0,0.0,0.0,0.0,0.0,0.0,0.0,0.0,0.0,0.0,0.0,0.0,0.0,0.0,0.0,0.0,0.0,0.0,0.0,0.0,0.0,0.0,0.30569275777833965,0.015082770268649475,0.011930098091300797,0.0027644624933600426,-0.015505271032452587,-0.02443888038396835,0.0,0.0,0.0,0.0,0.0,0.0,0.0,0.0,0.0,0.0,0.0,0.0,0.0,0.0,0.0,0.0,0.0,0.0,0.0,0.0,0.0,0.0,0.0,0.0,0.0,0.0,0.0,0.0,0.0,0.0,0.0,0.0,0.0,0.0,0.0,0.0
131592000000,3825,131592000000,map,base_link,-0.1077888086438179,-2.667919158935547,0.4928129315376282,-0.0067809021367794195,0.0068511022044534815,0.6763113249458462,0.736552948219021,0.0,0.0,0.0,0.0,0.0,0.0,0.0,0.0,0.0,0.0,0.0,0.0,0.0,0.0,0.0,0.0,0.0,0.0,0.0,0.0,0.0,0.0,0.0,0.0,0.0,0.0,0.0,0.0,0.0,0.0,0.0,0.0,0.0,0.0,0.0,0.0,0.3077838712647753,0.014731771076416444,0.012193371319992057,0.00435581523925066,-0.02942811138927937,-0.0239984318614006,0.0,0.0,0.0,0.0,0.0,0.0,0.0,0.0,0.0,0.0,0.0,0.0,0.0,0.0,0.0,0.0,0.0,0.0,0.0,0.0,0.0,0.0,0.0,0.0,0.0,0.0,0.0,0.0,0.0,0.0,0.0,0.0,0.0,0.0,0.0,0.0
131628000000,3826,131628000000,map,base_link,-0.10873205959796906,-2.659003734588623,0.49281129240989685,-0.006546406257846203,0.006604267902502127,0.6761263029150615,0.736727012069193,0.0,0.0,0.0,0.0,0.0,0.0,0.0,0.0,0.0,0.0,0.0,0.0,0.0,0.0,0.0,0.0,0.0,0.0,0.0,0.0,0.0,0.0,0.0,0.0,0.0,0.0,0.0,0.0,0.0,0.0,0.0,0.0,0.0,0.0,0.0,0.0,0.30933442084856144,0.014562215840829638,0.011514963210151677,0.0017380837816745043,-0.036303482949733734,-0.024716481566429135,0.0,0.0,0.0,0.0,0.0,0.0,0.0,0.0,0.0,0.0,0.0,0.0,0.0,0.0,0.0,0.0,0.0,0.0,0.0,0.0,0.0,0.0,0.0,0.0,0.0,0.0,0.0,0.0,0.0,0.0,0.0,0.0,0.0,0.0,0.0,0.0
131664000000,3827,131660000000,map,base_link,-0.10977672040462494,-2.6462721824645996,0.4928441047668457,-0.0058635991849164,0.005779370251630896,0.6757949470262469,0.7370437851484228,0.0,0.0,0.0,0.0,0.0,0.0,0.0,0.0,0.0,0.0,0.0,0.0,0.0,0.0,0.0,0.0,0.0,0.0,0.0,0.0,0.0,0.0,0.0,0.0,0.0,0.0,0.0,0.0,0.0,0.0,0.0,0.0,0.0,0.0,0.0,0.0,0.3100748177594173,0.015235808396490136,0.010936628514017187,-0.0014126261230558157,-0.06490102410316467,-0.02081217616796493,0.0,0.0,0.0,0.0,0.0,0.0,0.0,0.0,0.0,0.0,0.0,0.0,0.0,0.0,0.0,0.0,0.0,0.0,0.0,0.0,0.0,0.0,0.0,0.0,0.0,0.0,0.0,0.0,0.0,0.0,0.0,0.0,0.0,0.0,0.0,0.0
131696000000,3828,131696000000,map,base_link,-0.11041675508022308,-2.6361091136932373,0.49291133880615234,-0.004798082464545257,0.0045943987023906565,0.675455238158893,0.7373711871360115,0.0,0.0,0.0,0.0,0.0,0.0,0.0,0.0,0.0,0.0,0.0,0.0,0.0,0.0,0.0,0.0,0.0,0.0,0.0,0.0,0.0,0.0,0.0,0.0,0.0,0.0,0.0,0.0,0.0,0.0,0.0,0.0,0.0,0.0,0.0,0.0,0.3097465956061397,0.015335509209746011,0.010060626239610043,-0.0007598386728204787,-0.08857092261314392,-0.019349996000528325,0.0,0.0,0.0,0.0,0.0,0.0,0.0,0.0,0.0,0.0,0.0,0.0,0.0,0.0,0.0,0.0,0.0,0.0,0.0,0.0,0.0,0.0,0.0,0.0,0.0,0.0,0.0,0.0,0.0,0.0,0.0,0.0,0.0,0.0,0.0,0.0
131728000000,3829,131728000000,map,base_link,-0.11136484891176224,-2.627122640609741,0.49293917417526245,-0.004053977899031415,0.003753939814576799,0.6752762510299793,0.7375442737061335,0.0,0.0,0.0,0.0,0.0,0.0,0.0,0.0,0.0,0.0,0.0,0.0,0.0,0.0,0.0,0.0,0.0,0.0,0.0,0.0,0.0,0.0,0.0,0.0,0.0,0.0,0.0,0.0,0.0,0.0,0.0,0.0,0.0,0.0,0.0,0.0,0.30917244703942626,0.016304020108924223,0.010091651671753772,-0.0009844675660133362,-0.09497305750846863,-0.021061573177576055,0.0,0.0,0.0,0.0,0.0,0.0,0.0,0.0,0.0,0.0,0.0,0.0,0.0,0.0,0.0,0.0,0.0,0.0,0.0,0.0,0.0,0.0,0.0,0.0,0.0,0.0,0.0,0.0,0.0,0.0,0.0,0.0,0.0,0.0,0.0,0.0
131764000000,3830,131764000000,map,base_link,-0.11244111508131027,-2.6143853664398193,0.4930605888366699,-0.0031107648813606605,0.0027072111117744553,0.6750287831747697,0.7377799404437603,0.0,0.0,0.0,0.0,0.0,0.0,0.0,0.0,0.0,0.0,0.0,0.0,0.0,0.0,0.0,0.0,0.0,0.0,0.0,0.0,0.0,0.0,0.0,0.0,0.0,0.0,0.0,0.0,0.0,0.0,0.0,0.0,0.0,0.0,0.0,0.0,0.3073787717016736,0.01650105723543626,0.009913184114265363,0.002325201639905572,-0.0635630264878273,-0.01972817070782184,0.0,0.0,0.0,0.0,0.0,0.0,0.0,0.0,0.0,0.0,0.0,0.0,0.0,0.0,0.0,0.0,0.0,0.0,0.0,0.0,0.0,0.0,0.0,0.0,0.0,0.0,0.0,0.0,0.0,0.0,0.0,0.0,0.0,0.0,0.0,0.0
131800000000,3831,131792000000,map,base_link,-0.11321081221103668,-2.604253053665161,0.4931972622871399,-0.0025535644874149412,0.0021714650277639878,0.6747205580032534,0.7380658277855657,0.0,0.0,0.0,0.0,0.0,0.0,0.0,0.0,0.0,0.0,0.0,0.0,0.0,0.0,0.0,0.0,0.0,0.0,0.0,0.0,0.0,0.0,0.0,0.0,0.0,0.0,0.0,0.0,0.0,0.0,0.0,0.0,0.0,0.0,0.0,0.0,0.3050561087446279,0.016301130398538317,0.009832974670983385,0.0031201953534036875,-0.02189787290990353,-0.019789464771747586,0.0,0.0,0.0,0.0,0.0,0.0,0.0,0.0,0.0,0.0,0.0,0.0,0.0,0.0,0.0,0.0,0.0,0.0,0.0,0.0,0.0,0.0,0.0,0.0,0.0,0.0,0.0,0.0,0.0,0.0,0.0,0.0,0.0,0.0,0.0,0.0
131824000000,3832,131824000000,map,base_link,-0.1141366958618164,-2.5953261852264404,0.4933018684387207,-0.0024791331323651866,0.002103987285333055,0.6745672699152193,0.7382063032316526,0.0,0.0,0.0,0.0,0.0,0.0,0.0,0.0,0.0,0.0,0.0,0.0,0.0,0.0,0.0,0.0,0.0,0.0,0.0,0.0,0.0,0.0,0.0,0.0,0.0,0.0,0.0,0.0,0.0,0.0,0.0,0.0,0.0,0.0,0.0,0.0,0.3032188808415756,0.016325704782753594,0.009998262033105523,0.003614894114434719,-0.00539800198748708,-0.020317276939749718,0.0,0.0,0.0,0.0,0.0,0.0,0.0,0.0,0.0,0.0,0.0,0.0,0.0,0.0,0.0,0.0,0.0,0.0,0.0,0.0,0.0,0.0,0.0,0.0,0.0,0.0,0.0,0.0,0.0,0.0,0.0,0.0,0.0,0.0,0.0,0.0
131864000000,3833,131864000000,map,base_link,-0.1151602491736412,-2.5827271938323975,0.4935019016265869,-0.0026845944913623026,0.0024170385179579745,0.6743234609332959,0.7384272686216831,0.0,0.0,0.0,0.0,0.0,0.0,0.0,0.0,0.0,0.0,0.0,0.0,0.0,0.0,0.0,0.0,0.0,0.0,0.0,0.0,0.0,0.0,0.0,0.0,0.0,0.0,0.0,0.0,0.0,0.0,0.0,0.0,0.0,0.0,0.0,0.0,0.30116013211951853,0.0159024985215457,0.010604981112978296,0.004661561921238899,0.03109747916460037,-0.014512317255139354,0.0,0.0,0.0,0.0,0.0,0.0,0.0,0.0,0.0,0.0,0.0,0.0,0.0,0.0,0.0,0.0,0.0,0.0,0.0,0.0,0.0,0.0,0.0,0.0,0.0,0.0,0.0,0.0,0.0,0.0,0.0,0.0,0.0,0.0,0.0,0.0
131892000000,3834,131892000000,map,base_link,-0.11588211357593536,-2.5727109909057617,0.49368807673454285,-0.003228083412425377,0.003110094009722496,0.6740636519540065,0.7386596821494402,0.0,0.0,0.0,0.0,0.0,0.0,0.0,0.0,0.0,0.0,0.0,0.0,0.0,0.0,0.0,0.0,0.0,0.0,0.0,0.0,0.0,0.0,0.0,0.0,0.0,0.0,0.0,0.0,0.0,0.0,0.0,0.0,0.0,0.0,0.0,0.0,0.2995955676817582,0.01571534410675014,0.01128777287189933,0.002288196003064513,0.05025307461619377,-0.016228217631578452,0.0,0.0,0.0,0.0,0.0,0.0,0.0,0.0,0.0,0.0,0.0,0.0,0.0,0.0,0.0,0.0,0.0,0.0,0.0,0.0,0.0,0.0,0.0,0.0,0.0,0.0,0.0,0.0,0.0,0.0,0.0,0.0,0.0,0.0,0.0,0.0
131924000000,3835,131924000000,map,base_link,-0.11676331609487534,-2.5638625621795654,0.49383407831192017,-0.0035198283635727297,0.0034438780961946565,0.673968984863895,0.738743222471545,0.0,0.0,0.0,0.0,0.0,0.0,0.0,0.0,0.0,0.0,0.0,0.0,0.0,0.0,0.0,0.0,0.0,0.0,0.0,0.0,0.0,0.0,0.0,0.0,0.0,0.0,0.0,0.0,0.0,0.0,0.0,0.0,0.0,0.0,0.0,0.0,0.2985781471344595,0.015762441307758782,0.011248530581875978,0.0015356146031990647,0.05579158291220665,-0.015275132842361934,0.0,0.0,0.0,0.0,0.0,0.0,0.0,0.0,0.0,0.0,0.0,0.0,0.0,0.0,0.0,0.0,0.0,0.0,0.0,0.0,0.0,0.0,0.0,0.0,0.0,0.0,0.0,0.0,0.0,0.0,0.0,0.0,0.0,0.0,0.0,0.0
131964000000,3836,131964000000,map,base_link,-0.11771996319293976,-2.551335334777832,0.4940476715564728,-0.004332845215547885,0.004376841858987861,0.6737087807579009,0.7389713106789737,0.0,0.0,0.0,0.0,0.0,0.0,0.0,0.0,0.0,0.0,0.0,0.0,0.0,0.0,0.0,0.0,0.0,0.0,0.0,0.0,0.0,0.0,0.0,0.0,0.0,0.0,0.0,0.0,0.0,0.0,0.0,0.0,0.0,0.0,0.0,0.0,0.2982262704592881,0.015622366785283897,0.010821681445617319,0.0023260449524968863,0.06218942627310753,-0.016176691278815276,0.0,0.0,0.0,0.0,0.0,0.0,0.0,0.0,0.0,0.0,0.0,0.0,0.0,0.0,0.0,0.0,0.0,0.0,0.0,0.0,0.0,0.0,0.0,0.0,0.0,0.0,0.0,0.0,0.0,0.0,0.0,0.0,0.0,0.0,0.0,0.0
132004000000,3837,131992000000,map,base_link,-0.11828262358903885,-2.541363477706909,0.494219034910202,-0.0050450980488795085,0.005207435660036755,0.6734441038176086,0.7392026073152456,0.0,0.0,0.0,0.0,0.0,0.0,0.0,0.0,0.0,0.0,0.0,0.0,0.0,0.0,0.0,0.0,0.0,0.0,0.0,0.0,0.0,0.0,0.0,0.0,0.0,0.0,0.0,0.0,0.0,0.0,0.0,0.0,0.0,0.0,0.0,0.0,0.2992896630278906,0.015384209747482409,0.011760318110148353,0.00520734628662467,0.04815142974257469,-0.01391231175512076,0.0,0.0,0.0,0.0,0.0,0.0,0.0,0.0,0.0,0.0,0.0,0.0,0.0,0.0,0.0,0.0,0.0,0.0,0.0,0.0,0.0,0.0,0.0,0.0,0.0,0.0,0.0,0.0,0.0,0.0,0.0,0.0,0.0,0.0,0.0,0.0
132032000000,3838,132028000000,map,base_link,-0.1190209910273552,-2.5325820446014404,0.4943585693836212,-0.005330626530232027,0.005560609740641437,0.6733173603416022,0.7393135035762117,0.0,0.0,0.0,0.0,0.0,0.0,0.0,0.0,0.0,0.0,0.0,0.0,0.0,0.0,0.0,0.0,0.0,0.0,0.0,0.0,0.0,0.0,0.0,0.0,0.0,0.0,0.0,0.0,0.0,0.0,0.0,0.0,0.0,0.0,0.0,0.0,0.2997480248581341,0.01574220402308819,0.01189836792142256,0.0037701784167438745,0.045486848801374435,-0.017697853967547424,0.0,0.0,0.0,0.0,0.0,0.0,0.0,0.0,0.0,0.0,0.0,0.0,0.0,0.0,0.0,0.0,0.0,0.0,0.0,0.0,0.0,0.0,0.0,0.0,0.0,0.0,0.0,0.0,0.0,0.0,0.0,0.0,0.0,0.0,0.0,0.0
132064000000,3839,132064000000,map,base_link,-0.11994244903326035,-2.5200719833374023,0.4945721924304962,-0.005904109797279147,0.00623905448612839,0.6730656382888708,0.7395328568492867,0.0,0.0,0.0,0.0,0.0,0.0,0.0,0.0,0.0,0.0,0.0,0.0,0.0,0.0,0.0,0.0,0.0,0.0,0.0,0.0,0.0,0.0,0.0,0.0,0.0,0.0,0.0,0.0,0.0,0.0,0.0,0.0,0.0,0.0,0.0,0.0,0.3010827001662262,0.01545893502768657,0.012665030347178578,0.002484493190422654,0.042271070182323456,-0.01945351250469685,0.0,0.0,0.0,0.0,0.0,0.0,0.0,0.0,0.0,0.0,0.0,0.0,0.0,0.0,0.0,0.0,0.0,0.0,0.0,0.0,0.0,0.0,0.0,0.0,0.0,0.0,0.0,0.0,0.0,0.0,0.0,0.0,0.0,0.0,0.0,0.0
132100000000,3840,132096000000,map,base_link,-0.12047713994979858,-2.510068416595459,0.4947678744792938,-0.0063702921271013395,0.006766638209365392,0.6728143429729807,0.7397530477909758,0.0,0.0,0.0,0.0,0.0,0.0,0.0,0.0,0.0,0.0,0.0,0.0,0.0,0.0,0.0,0.0,0.0,0.0,0.0,0.0,0.0,0.0,0.0,0.0,0.0,0.0,0.0,0.0,0.0,0.0,0.0,0.0,0.0,0.0,0.0,0.0,0.30267526526609456,0.01529987405357123,0.013031058366922373,-0.0016862972406670451,0.030312895774841305,-0.015798712149262432,0.0,0.0,0.0,0.0,0.0,0.0,0.0,0.0,0.0,0.0,0.0,0.0,0.0,0.0,0.0,0.0,0.0,0.0,0.0,0.0,0.0,0.0,0.0,0.0,0.0,0.0,0.0,0.0,0.0,0.0,0.0,0.0,0.0,0.0,0.0,0.0
132128000000,3841,132128000000,map,base_link,-0.121275395154953,-2.501132011413574,0.4949142038822174,-0.006525639133960153,0.006926421871733518,0.6726950990018312,0.7398586361832077,0.0,0.0,0.0,0.0,0.0,0.0,0.0,0.0,0.0,0.0,0.0,0.0,0.0,0.0,0.0,0.0,0.0,0.0,0.0,0.0,0.0,0.0,0.0,0.0,0.0,0.0,0.0,0.0,0.0,0.0,0.0,0.0,0.0,0.0,0.0,0.0,0.30442716597093233,0.015131444740006024,0.012928072599573053,0.00016531706205569208,0.021064899861812588,-0.017576588317751888,0.0,0.0,0.0,0.0,0.0,0.0,0.0,0.0,0.0,0.0,0.0,0.0,0.0,0.0,0.0,0.0,0.0,0.0,0.0,0.0,0.0,0.0,0.0,0.0,0.0,0.0,0.0,0.0,0.0,0.0,0.0,0.0,0.0,0.0,0.0,0.0
132172000000,3842,132156000000,map,base_link,-0.12210694700479507,-2.488377809524536,0.49512672424316406,-0.006690420881610161,0.007070630524318018,0.6724226854806591,0.7401034013717567,0.0,0.0,0.0,0.0,0.0,0.0,0.0,0.0,0.0,0.0,0.0,0.0,0.0,0.0,0.0,0.0,0.0,0.0,0.0,0.0,0.0,0.0,0.0,0.0,0.0,0.0,0.0,0.0,0.0,0.0,0.0,0.0,0.0,0.0,0.0,0.0,0.306638504000808,0.014605179555554909,0.01243004204438163,0.001745386398397386,0.0036991639062762234,-0.02037404105067253,0.0,0.0,0.0,0.0,0.0,0.0,0.0,0.0,0.0,0.0,0.0,0.0,0.0,0.0,0.0,0.0,0.0,0.0,0.0,0.0,0.0,0.0,0.0,0.0,0.0,0.0,0.0,0.0,0.0,0.0,0.0,0.0,0.0,0.0,0.0,0.0
132196000000,3843,132196000000,map,base_link,-0.12266376614570618,-2.478109836578369,0.495280921459198,-0.006610834501890464,0.007005010474205557,0.6721389871407982,0.7403624016583903,0.0,0.0,0.0,0.0,0.0,0.0,0.0,0.0,0.0,0.0,0.0,0.0,0.0,0.0,0.0,0.0,0.0,0.0,0.0,0.0,0.0,0.0,0.0,0.0,0.0,0.0,0.0,0.0,0.0,0.0,0.0,0.0,0.0,0.0,0.0,0.0,0.3083620242334294,0.014606482007570407,0.011660501256531022,0.0009240648942068219,-0.013498145155608656,-0.01961052417755127,0.0,0.0,0.0,0.0,0.0,0.0,0.0,0.0,0.0,0.0,0.0,0.0,0.0,0.0,0.0,0.0,0.0,0.0,0.0,0.0,0.0,0.0,0.0,0.0,0.0,0.0,0.0,0.0,0.0,0.0,0.0,0.0,0.0,0.0,0.0,0.0
132236000000,3844,132228000000,map,base_link,-0.1233639195561409,-2.4689512252807617,0.49539628624916077,-0.006472187617817406,0.006805270848296774,0.6719746276024958,0.7405146229043215,0.0,0.0,0.0,0.0,0.0,0.0,0.0,0.0,0.0,0.0,0.0,0.0,0.0,0.0,0.0,0.0,0.0,0.0,0.0,0.0,0.0,0.0,0.0,0.0,0.0,0.0,0.0,0.0,0.0,0.0,0.0,0.0,0.0,0.0,0.0,0.0,0.30999046464403307,0.014490002600542154,0.011334274199889135,-0.0013712962390854955,-0.023405089974403385,-0.01604414917528629,0.0,0.0,0.0,0.0,0.0,0.0,0.0,0.0,0.0,0.0,0.0,0.0,0.0,0.0,0.0,0.0,0.0,0.0,0.0,0.0,0.0,0.0,0.0,0.0,0.0,0.0,0.0,0.0,0.0,0.0,0.0,0.0,0.0,0.0,0.0,0.0
132268000000,3845,132256000000,map,base_link,-0.12405536323785782,-2.4559149742126465,0.49556106328964233,-0.006029614931787029,0.006273998452634434,0.671730771205368,0.7407443179603498,0.0,0.0,0.0,0.0,0.0,0.0,0.0,0.0,0.0,0.0,0.0,0.0,0.0,0.0,0.0,0.0,0.0,0.0,0.0,0.0,0.0,0.0,0.0,0.0,0.0,0.0,0.0,0.0,0.0,0.0,0.0,0.0,0.0,0.0,0.0,0.0,0.31117143004033826,0.01334258661319929,0.010183916195103594,0.00010946977999992669,-0.04765966907143593,-0.021099390462040894,0.0,0.0,0.0,0.0,0.0,0.0,0.0,0.0,0.0,0.0,0.0,0.0,0.0,0.0,0.0,0.0,0.0,0.0,0.0,0.0,0.0,0.0,0.0,0.0,0.0,0.0,0.0,0.0,0.0,0.0,0.0,0.0,0.0,0.0,0.0,0.0
132304000000,3846,132292000000,map,base_link,-0.12439610809087753,-2.4455244541168213,0.495687872171402,-0.005205079356918093,0.00528506313737891,0.6714866461220806,0.7409795079117527,0.0,0.0,0.0,0.0,0.0,0.0,0.0,0.0,0.0,0.0,0.0,0.0,0.0,0.0,0.0,0.0,0.0,0.0,0.0,0.0,0.0,0.0,0.0,0.0,0.0,0.0,0.0,0.0,0.0,0.0,0.0,0.0,0.0,0.0,0.0,0.0,0.31219604966454967,0.013202914434765439,0.009203151006761952,-0.0026624074671417475,-0.07300936430692673,-0.01686101034283637,0.0,0.0,0.0,0.0,0.0,0.0,0.0,0.0,0.0,0.0,0.0,0.0,0.0,0.0,0.0,0.0,0.0,0.0,0.0,0.0,0.0,0.0,0.0,0.0,0.0,0.0,0.0,0.0,0.0,0.0,0.0,0.0,0.0,0.0,0.0,0.0
132328000000,3847,132328000000,map,base_link,-0.12501300871372223,-2.4362854957580566,0.49577561020851135,-0.004682957140077412,0.0046852474421162265,0.6713545789722718,0.7411067703208314,0.0,0.0,0.0,0.0,0.0,0.0,0.0,0.0,0.0,0.0,0.0,0.0,0.0,0.0,0.0,0.0,0.0,0.0,0.0,0.0,0.0,0.0,0.0,0.0,0.0,0.0,0.0,0.0,0.0,0.0,0.0,0.0,0.0,0.0,0.0,0.0,0.3120395706480306,0.013243600182027953,0.008369303080929535,-8.509622421115637e-05,-0.08101526647806168,-0.018072914332151403,0.0,0.0,0.0,0.0,0.0,0.0,0.0,0.0,0.0,0.0,0.0,0.0,0.0,0.0,0.0,0.0,0.0,0.0,0.0,0.0,0.0,0.0,0.0,0.0,0.0,0.0,0.0,0.0,0.0,0.0,0.0,0.0,0.0,0.0,0.0,0.0
132360000000,3848,132360000000,map,base_link,-0.12562166154384613,-2.423206329345703,0.495911180973053,-0.0036433305040903096,0.00342780695544233,0.6711346251066056,0.7413186319915834,0.0,0.0,0.0,0.0,0.0,0.0,0.0,0.0,0.0,0.0,0.0,0.0,0.0,0.0,0.0,0.0,0.0,0.0,0.0,0.0,0.0,0.0,0.0,0.0,0.0,0.0,0.0,0.0,0.0,0.0,0.0,0.0,0.0,0.0,0.0,0.0,0.3113161832588691,0.013562100928607866,0.00705656957490233,-0.0024506442714482546,-0.08229290693998337,-0.015437271445989598,0.0,0.0,0.0,0.0,0.0,0.0,0.0,0.0,0.0,0.0,0.0,0.0,0.0,0.0,0.0,0.0,0.0,0.0,0.0,0.0,0.0,0.0,0.0,0.0,0.0,0.0,0.0,0.0,0.0,0.0,0.0,0.0,0.0,0.0,0.0,0.0
132392000000,3849,132392000000,map,base_link,-0.1259327232837677,-2.4128594398498535,0.4960222542285919,-0.0025772896234498447,0.0020607876505285704,0.670902261628231,0.7415386042964959,0.0,0.0,0.0,0.0,0.0,0.0,0.0,0.0,0.0,0.0,0.0,0.0,0.0,0.0,0.0,0.0,0.0,0.0,0.0,0.0,0.0,0.0,0.0,0.0,0.0,0.0,0.0,0.0,0.0,0.0,0.0,0.0,0.0,0.0,0.0,0.0,0.3093456645958559,0.013534399897908122,0.006019155441307633,-0.0036199705209583044,-0.07575668394565582,-0.014778634533286086,0.0,0.0,0.0,0.0,0.0,0.0,0.0,0.0,0.0,0.0,0.0,0.0,0.0,0.0,0.0,0.0,0.0,0.0,0.0,0.0,0.0,0.0,0.0,0.0,0.0,0.0,0.0,0.0,0.0,0.0,0.0,0.0,0.0,0.0,0.0,0.0
132424000000,3850,132424000000,map,base_link,-0.12644004821777344,-2.4038164615631104,0.49611979722976685,-0.002214240992075337,0.0016113918980383217,0.6708332435296163,0.7416032391228654,0.0,0.0,0.0,0.0,0.0,0.0,0.0,0.0,0.0,0.0,0.0,0.0,0.0,0.0,0.0,0.0,0.0,0.0,0.0,0.0,0.0,0.0,0.0,0.0,0.0,0.0,0.0,0.0,0.0,0.0,0.0,0.0,0.0,0.0,0.0,0.0,0.30730103721343843,0.01369488091312223,0.006157584127457969,-0.003047244157642126,-0.0718436986207962,-0.011565917171537867,0.0,0.0,0.0,0.0,0.0,0.0,0.0,0.0,0.0,0.0,0.0,0.0,0.0,0.0,0.0,0.0,0.0,0.0,0.0,0.0,0.0,0.0,0.0,0.0,0.0,0.0,0.0,0.0,0.0,0.0,0.0,0.0,0.0,0.0,0.0,0.0
132460000000,3851,132456000000,map,base_link,-0.1270642876625061,-2.3910937309265137,0.49629518389701843,-0.0016652538417560832,0.0009293993366224332,0.670649989032291,0.7417714893421209,0.0,0.0,0.0,0.0,0.0,0.0,0.0,0.0,0.0,0.0,0.0,0.0,0.0,0.0,0.0,0.0,0.0,0.0,0.0,0.0,0.0,0.0,0.0,0.0,0.0,0.0,0.0,0.0,0.0,0.0,0.0,0.0,0.0,0.0,0.0,0.0,0.3029377688842249,0.013979259304888277,0.00635909938977014,-0.0006993452552706003,-0.02453419379889965,-0.01321444287896156,0.0,0.0,0.0,0.0,0.0,0.0,0.0,0.0,0.0,0.0,0.0,0.0,0.0,0.0,0.0,0.0,0.0,0.0,0.0,0.0,0.0,0.0,0.0,0.0,0.0,0.0,0.0,0.0,0.0,0.0,0.0,0.0,0.0,0.0,0.0,0.0
132496000000,3852,132496000000,map,base_link,-0.12749706208705902,-2.3810312747955322,0.4964505136013031,-0.0017953426003858943,0.0010553335849055718,0.6704307516630494,0.7419692318186218,0.0,0.0,0.0,0.0,0.0,0.0,0.0,0.0,0.0,0.0,0.0,0.0,0.0,0.0,0.0,0.0,0.0,0.0,0.0,0.0,0.0,0.0,0.0,0.0,0.0,0.0,0.0,0.0,0.0,0.0,0.0,0.0,0.0,0.0,0.0,0.0,0.2999063571579461,0.014340507193977265,0.006633673459406729,0.0010628188028931618,0.027456637471914288,-0.01659071817994118,0.0,0.0,0.0,0.0,0.0,0.0,0.0,0.0,0.0,0.0,0.0,0.0,0.0,0.0,0.0,0.0,0.0,0.0,0.0,0.0,0.0,0.0,0.0,0.0,0.0,0.0,0.0,0.0,0.0,0.0,0.0,0.0,0.0,0.0,0.0,0.0
132536000000,3853,132524000000,map,base_link,-0.12810395658016205,-2.372159719467163,0.49659085273742676,-0.0020563619021628453,0.00132723846276335,0.6703395406145157,0.7420504962109069,0.0,0.0,0.0,0.0,0.0,0.0,0.0,0.0,0.0,0.0,0.0,0.0,0.0,0.0,0.0,0.0,0.0,0.0,0.0,0.0,0.0,0.0,0.0,0.0,0.0,0.0,0.0,0.0,0.0,0.0,0.0,0.0,0.0,0.0,0.0,0.0,0.29789503323056765,0.014635828215534512,0.007316536128643959,-0.0011754814768210053,0.03911890834569931,-0.013344421982765203,0.0,0.0,0.0,0.0,0.0,0.0,0.0,0.0,0.0,0.0,0.0,0.0,0.0,0.0,0.0,0.0,0.0,0.0,0.0,0.0,0.0,0.0,0.0,0.0,0.0,0.0,0.0,0.0,0.0,0.0,0.0,0.0,0.0,0.0,0.0,0.0
132580000000,3854,132560000000,map,base_link,-0.12873131036758423,-2.3596718311309814,0.49682360887527466,-0.002670698481960812,0.002013416650753913,0.6701756842042175,0.7421950493645871,0.0,0.0,0.0,0.0,0.0,0.0,0.0,0.0,0.0,0.0,0.0,0.0,0.0,0.0,0.0,0.0,0.0,0.0,0.0,0.0,0.0,0.0,0.0,0.0,0.0,0.0,0.0,0.0,0.0,0.0,0.0,0.0,0.0,0.0,0.0,0.0,0.2956677629272832,0.014523118868997011,0.00820528602291521,0.0020146863535046577,0.0431872121989727,-0.011741803027689462,0.0,0.0,0.0,0.0,0.0,0.0,0.0,0.0,0.0,0.0,0.0,0.0,0.0,0.0,0.0,0.0,0.0,0.0,0.0,0.0,0.0,0.0,0.0,0.0,0.0,0.0,0.0,0.0,0.0,0.0,0.0,0.0,0.0,0.0,0.0,0.0
132604000000,3855,132592000000,map,base_link,-0.12905080616474152,-2.349815845489502,0.49702003598213196,-0.003092449379766097,0.0025931236058610602,0.6700083217029589,0.7423427714344398,0.0,0.0,0.0,0.0,0.0,0.0,0.0,0.0,0.0,0.0,0.0,0.0,0.0,0.0,0.0,0.0,0.0,0.0,0.0,0.0,0.0,0.0,0.0,0.0,0.0,0.0,0.0,0.0,0.0,0.0,0.0,0.0,0.0,0.0,0.0,0.0,0.29403442958865605,0.014133972758715026,0.008400408986325563,0.002629547379910946,0.029286155477166176,-0.010160612873733047,0.0,0.0,0.0,0.0,0.0,0.0,0.0,0.0,0.0,0.0,0.0,0.0,0.0,0.0,0.0,0.0,0.0,0.0,0.0,0.0,0.0,0.0,0.0,0.0,0.0,0.0,0.0,0.0,0.0,0.0,0.0,0.0,0.0,0.0,0.0,0.0
132628000000,3856,132624000000,map,base_link,-0.12961991131305695,-2.3410985469818115,0.49717164039611816,-0.003194081298332602,0.0028071788266307396,0.6699197211248548,0.7424214253562953,0.0,0.0,0.0,0.0,0.0,0.0,0.0,0.0,0.0,0.0,0.0,0.0,0.0,0.0,0.0,0.0,0.0,0.0,0.0,0.0,0.0,0.0,0.0,0.0,0.0,0.0,0.0,0.0,0.0,0.0,0.0,0.0,0.0,0.0,0.0,0.0,0.29235443085598345,0.013750168440140756,0.008211148191293741,0.008679959923028946,0.014103151857852934,-0.010419281199574472,0.0,0.0,0.0,0.0,0.0,0.0,0.0,0.0,0.0,0.0,0.0,0.0,0.0,0.0,0.0,0.0,0.0,0.0,0.0,0.0,0.0,0.0,0.0,0.0,0.0,0.0,0.0,0.0,0.0,0.0,0.0,0.0,0.0,0.0,0.0,0.0
132664000000,3857,132664000000,map,base_link,-0.13017575442790985,-2.328819513320923,0.4973820447921753,-0.003324782822337333,0.0030950350210096657,0.6697485021869574,0.7425741839745449,0.0,0.0,0.0,0.0,0.0,0.0,0.0,0.0,0.0,0.0,0.0,0.0,0.0,0.0,0.0,0.0,0.0,0.0,0.0,0.0,0.0,0.0,0.0,0.0,0.0,0.0,0.0,0.0,0.0,0.0,0.0,0.0,0.0,0.0,0.0,0.0,0.2908633369691079,0.013650848710754651,0.007539437314582633,0.005423601251095533,0.017344072461128235,-0.013494851998984815,0.0,0.0,0.0,0.0,0.0,0.0,0.0,0.0,0.0,0.0,0.0,0.0,0.0,0.0,0.0,0.0,0.0,0.0,0.0,0.0,0.0,0.0,0.0,0.0,0.0,0.0,0.0,0.0,0.0,0.0,0.0,0.0,0.0,0.0,0.0,0.0
132692000000,3858,132692000000,map,base_link,-0.13043852150440216,-2.31911563873291,0.49752411246299744,-0.0034993062233885284,0.003390447663765923,0.6695422723888375,0.742758075942954,0.0,0.0,0.0,0.0,0.0,0.0,0.0,0.0,0.0,0.0,0.0,0.0,0.0,0.0,0.0,0.0,0.0,0.0,0.0,0.0,0.0,0.0,0.0,0.0,0.0,0.0,0.0,0.0,0.0,0.0,0.0,0.0,0.0,0.0,0.0,0.0,0.2891360396488014,0.013090002910636356,0.006661353314177604,0.0005234527634456754,0.01047164388000965,-0.012652853503823282,0.0,0.0,0.0,0.0,0.0,0.0,0.0,0.0,0.0,0.0,0.0,0.0,0.0,0.0,0.0,0.0,0.0,0.0,0.0,0.0,0.0,0.0,0.0,0.0,0.0,0.0,0.0,0.0,0.0,0.0,0.0,0.0,0.0,0.0,0.0,0.0
